,Location 1,longitude,latitude,type
0,"301 32nd St Baltimore, MD ",-76.5230489,39.325398,park
1,"1530 Montpelier St Baltimore, MD ",-76.5977396,39.3215717,park
2,"3111 Presstman St Baltimore, MD ",-76.6698711,39.3042646,park
3,"5200 Alhambra Ave Baltimore, MD ",-76.6058855,39.3526969,park
4,"1002 Harford Rd Baltimore, MD ",-76.5932525,39.3185764,park
5,"2339 Boston St Baltimore, MD ",-76.5772274,39.2788228,park
6,"1116 Andover Rd Baltimore, MD ",-76.59976885,39.3369425,park
7,"240 Laurens St Baltimore, MD ",-76.6287141,39.30958265,park
8,"1322 Asbury Rd Baltimore, MD ",-76.6515104,39.370892,park
9,"2304 Atlantic Ave Baltimore, MD ",-76.6481798,39.2609889,park
10,"906 Pratt St Baltimore, MD ",0.0,0.0,park
11,"1400 Cathedral St Baltimore, MD ",-76.6191543,39.3054411,park
12,"1601 Pennsylvania Ave Baltimore, MD ",-76.6340200054,39.3032871,park
13,"5101 Mayview Ave Baltimore, MD ",-76.5494173,39.331245,park
14,"2201 Calvert St Baltimore, MD ",-76.6103772,39.2346244,park
15,"200 Calvert St Baltimore, MD ",-76.610216,39.234668,park
16,"2800 Pulaski Hwy Baltimore, MD ",-76.5773608394,39.29510025,park
17,"2500 Belvedere Ave Baltimore, MD ",0.0,0.0,park
18,"1710 Baltimore St Baltimore, MD ",-76.5251439,39.295335,park
19,"University Ave Baltimore, MD ",-76.7110955,39.2694494,park
20,"3000 Madison St Baltimore, MD ",0.0,0.0,park
21,"3800 Sinclair La Baltimore, MD ",-76.5633660705,39.31395885,park
22,"2601 Boston St Baltimore, MD ",-76.5797887,39.2800002,park
23,"5400 Bucknell Rd Baltimore, MD ",-76.5341795948,39.3315208,park
24,"4001 Buena Vista Ave Baltimore, MD ",-76.6405518,39.335419,park
25,"6300 Walther Ave Baltimore, MD ",-76.5439069482,39.35528985,park
26,"4910 Park Heights Ave Baltimore, MD ",-76.6734593257,39.3467341,park
27,"1601 Calvert St Baltimore, MD ",-76.6103772,39.2346244,park
28,"801 Calvert St Baltimore, MD ",-76.6103772,39.2346244,park
29,"2007 Old Cold Spring La Baltimore, MD ",-76.6558459,39.3492318,park
30,"3001 Boston St Baltimore, MD ",-76.5699967,39.276827,park
31,"115 Carlton St Baltimore, MD ",0.0,0.0,park
32,"1351 Eden St Baltimore, MD ",0.0,0.0,park
33,"838 Carroll St Baltimore, MD ",-76.6301772,39.282127,park
34,"2025 Fairmount Ave Baltimore, MD ",-76.5962654,39.4040863,park
35,"2311 Ashton St Baltimore, MD ",-76.6533562,39.2810013,park
36,"909 22nd St Baltimore, MD ",0.0,0.0,park
37,"601 Chestnut Hill Ave Baltimore, MD ",-76.6066502,39.3339984,park
38,"623 Eden St Baltimore, MD ",0.0,0.0,park
39,"6000 Chinquapin Pkwy Baltimore, MD ",-76.5987223475,39.3661990074,park
40,"1600 Baltimore St Baltimore, MD ",-76.5251439,39.295335,park
41,"2801 Harford Rd Baltimore, MD ",-76.5912528,39.3152576,park
42,"1401 Filmore St Baltimore, MD ",0.0,0.0,park
43,"2131 Hoffman St Baltimore, MD ",0.0,0.0,park
44,"300 President St Baltimore, MD ",0.0,0.0,park
45,"1100 Park Ave Baltimore, MD ",-76.6209878,39.3046269,park
46,"280 Dolphin St Baltimore, MD ",-76.6233891,39.3041561,park
47,"601 Conway St Baltimore, MD ",0.0,0.0,park
48,"3700 Cottage Ave Baltimore, MD ",-76.6589125774,39.33151525,park
49,"3401 Cotwood Pl Baltimore, MD ",-76.656764,39.328856,park
50,"1641 Carey St Baltimore, MD ",0.0,0.0,park
51,"4416 Curtis Ave Baltimore, MD ",-76.5870872,39.225568,park
52,"4915 Greenspring Ave Baltimore, MD ",-76.6541944513,39.3531897,park
53,"301 Hilton St Baltimore, MD ",0.0,0.0,park
54,"1600 Desoto Rd Baltimore, MD ",-76.6574075,39.2664431,park
55,"5501 Ivanhoe Ave Baltimore, MD ",-76.6032275,39.3568373,park
56,"1719 Park Ave Baltimore, MD ",-76.6271693318,39.3098655,park
57,"1522 Bentalou St Baltimore, MD ",0.0,0.0,park
58,"911 Eden St Baltimore, MD ",0.0,0.0,park
59,"2601 Edgecombe Cir Baltimore, MD ",-76.6604412,39.3430417,park
60,"835 Allendale St Baltimore, MD ",-76.6782379297,39.29748615,park
61,"2821 Gwynns Falls Pkwy Baltimore, MD ",-76.6648132681,39.3144340842,park
62,"420 Ellwood Ave Baltimore, MD ",0.0,0.0,park
63,"3416 Elm Ave Baltimore, MD ",-76.6312951,39.3291401,park
64,"3347 Cliftmont Ave Baltimore, MD ",-76.5707899,39.3178256,park
65,"1200 2000 Eutaw Pl Baltimore, MD ",0.0,0.0,park
66,"Northern Pkwy Baltimore, MD ",-76.6929928,39.3476974,park
67,"4501 Fairing Ct Baltimore, MD ",-76.5984363,39.224568,park
68,"401 Fawcett St Baltimore, MD ",-76.6221624512,39.31544965,park
69,"101 Frederick St Baltimore, MD ",0.0,0.0,park
70,"300 Warren Ave Baltimore, MD ",-76.6091249925,39.27956925,park
71,"2700 Light St Baltimore, MD ",-76.6133152,39.2841955,park
72,"1627 Bolton St Baltimore, MD ",-76.6271555102,39.3080663265,park
73,"2501 Maisel St Baltimore, MD ",-76.639233,39.263397,park
74,"4249 Flowerton Rd Baltimore, MD ",-76.6883898546,39.2978401,park
75,"2900 Hillsdale Rd Baltimore, MD ",-76.700051875,39.32085575,park
76,"1100 Forrest St Park Baltimore, MD ",0.0,0.0,park
77,"4000 Hawkins Point Rd Baltimore, MD ",-76.5512715843,39.2022191302,park
78,"6401 Beckley St Baltimore, MD ",-76.5351114318,39.2671563,park
79,"310 28th St Baltimore, MD ",0.0,0.0,park
80,"3350 Dulany St Baltimore, MD ",-76.6732097,39.2748846,park
81,"1301 Lexington St Baltimore, MD ",0.0,0.0,park
82,"Frederick Ave Baltimore, MD ",-76.6819701,39.2817727,park
83,"3560 3rd St Baltimore, MD ",-76.6071992,39.2381378,park
84,"3311 Garrison Ave Baltimore, MD ",0.0,0.0,park
85,"101 Key Hwy Baltimore, MD ",-76.6120539395,39.28042875,park
86,"Gelston Dr Baltimore, MD ",-76.6808697,39.2956326,park
87,"2304 Greenmount Ave Baltimore, MD ",-76.6096838,39.315925,park
88,"2336 Druid Park Dr Baltimore, MD ",-76.6546801087,39.3296984098,park
89,"2100 Haines St Baltimore, MD ",-76.6281907,39.2718626,park
90,"5 39th St Baltimore, MD ",0.0,0.0,park
91,"2731 Longwood St Baltimore, MD ",0.0,0.0,park
92,"3421 Harlem Ave Baltimore, MD ",-76.6748978,39.2949484,park
93,"1808 1 2 W Lanvale St Baltimore, MD ",-76.6465216667,39.2977172222,park
94,"1511 Lafayette Ave Baltimore, MD ",-76.7366219,39.2806598,park
95,"1215 Lafayette Ave Baltimore, MD ",-76.7366219,39.2806598,park
96,"1801 Lanvale St Baltimore, MD ",0.0,0.0,park
97,"1300 Harlem Ave Baltimore, MD ",-76.6390447,39.2969623,park
98,"1201 Lanvale St Baltimore, MD ",0.0,0.0,park
99,"711 Arlington Ave Baltimore, MD ",-76.7057479,39.226499,park
100,"610 Vincent St Baltimore, MD ",0.0,0.0,park
101,"1211 Harlem Ave Baltimore, MD ",-76.6378631,39.2960855,park
102,"1820 Lauretta Ave Baltimore, MD ",-76.6466028163,39.2946059184,park
103,"1724 Franklin St Baltimore, MD ",0.0,0.0,park
104,"513 Mount St Baltimore, MD ",0.0,0.0,park
105,"1201 Edmondson Ave Baltimore, MD ",-76.6375758,39.2953341,park
106,"1500 Edmondson Ave Baltimore, MD ",-76.6419682,39.2954512,park
107,"420 27th St Baltimore, MD ",0.0,0.0,park
108,"1701 Charles St Baltimore, MD ",-76.6297372,39.4154699,park
109,"600 Braddish Ave Baltimore, MD ",-76.6596719,39.2961131,park
110,"415 Lafayette Ave Baltimore, MD ",-76.73650175,39.2802121,park
111,"1240 Henry St Baltimore, MD ",-76.6080359,39.2749338,park
112,"Harford Rd Baltimore, MD ",-76.5932525,39.3185764,park
113,"3100 Phelps La Baltimore, MD ",-76.671971431,39.2867994828,park
114,"1024 43rd St Baltimore, MD ",0.0,0.0,park
115,"500 Lombard St Baltimore, MD ",0.0,0.0,park
116,"310 Centre St Baltimore, MD ",-76.7052608,39.2226712,park
117,nan,70.3800314,34.220389,park
118,"903 Curley St Baltimore, MD ",0.0,0.0,park
119,"900 Hull St Baltimore, MD ",-76.5899472,39.2755078,park
120,"3214 Wylie Ave Baltimore, MD ",-76.6688671,39.3405149,park
121,"2810 Indiana Ave Baltimore, MD ",-76.6346354,39.2607142,park
122,"501 Pratt St Baltimore, MD ",0.0,0.0,park
123,"2809 Glen Ave Baltimore, MD ",-76.6783041,39.3600909,park
124,"342 Matingale Ave Baltimore, MD ",0.0,0.0,park
125,"4700 Reisterstown Rd Baltimore, MD ",-76.674034,39.340991,park
126,"140 Janney St Baltimore, MD ",0.0,0.0,park
127,"800 Biddle St Baltimore, MD ",-76.5260694,39.3093234,park
128,"6200 Pratt St Baltimore, MD ",0.0,0.0,park
129,"4210 Woodridge Rd Baltimore, MD ",-76.6867817,39.2968472,park
130,"3401 Taylor Ave Baltimore, MD ",-76.5374364,39.3688015,park
131,"2610 Keyworth Ave Baltimore, MD ",-76.6611721551,39.3339119,park
132,"4714 Kimberleigh Rd Baltimore, MD ",-76.6031142481,39.3464152054,park
133,"2209 Hunter St Baltimore, MD ",-76.6132298,39.3148688,park
134,"1800 Aiken St Baltimore, MD ",-76.6010858,39.3106146,park
135,"2001 Lafayette Ave Baltimore, MD ",-76.7366219,39.2806598,park
136,"816 Arlington Ave Baltimore, MD ",-76.7057479,39.226499,park
137,"2761 Wegworth La Baltimore, MD ",-76.641112104,39.25406325,park
138,"1529 Fort Ave Baltimore, MD ",-76.445901,39.2038512,park
139,"4500 Gough St Baltimore, MD ",-76.5581482,39.2890908,park
140,"836 Hollins St Baltimore, MD ",-76.6298697,39.2880841,park
141,"525 Hurley Ave Baltimore, MD ",-76.6628332333,39.2778955,park
142,"2601 Biddle St Baltimore, MD ",-76.5260694,39.3093234,park
143,"2325 Madison Ave Baltimore, MD ",-76.6373287,39.312386,park
144,"1050 Caroline St Baltimore, MD ",0.0,0.0,park
145,"1900 Maisel St Baltimore, MD ",-76.6477585,39.2703145,park
146,"709 North Ave Baltimore, MD ",-76.4596949,39.310429,park
147,"3600 Mulberry St Baltimore, MD ",0.0,0.0,park
148,"520 McMechen St Baltimore, MD ",-76.6323039,39.3039413,park
149,"1000 33rd St Baltimore, MD ",-76.5229999,39.326323,park
150,"2657 Miles Ave Baltimore, MD ",-76.6224668,39.3194096,park
151,"2920 Harford Rd Baltimore, MD ",-76.5874406626,39.3242168,park
152,"801 Montpelier St Baltimore, MD ",-76.6063338559,39.32539205,park
153,"4901 Denview Way Baltimore, MD ",-76.5338513,39.3234229,park
154,"2415 Tolley St Baltimore, MD ",-76.648459846,39.26588655,park
155,"Franklintown Rd Baltimore, MD ",-76.6673464,39.2978162,park
156,"2905 Baltimore St Baltimore, MD ",-76.5251439,39.295335,park
157,"Mount Royal Ter Baltimore, MD ",-76.6255807,39.3113872,park
158,"1 Mt Vernon Pl Baltimore, MD ",0.0,0.0,park
159,"4000 Old York Rd Baltimore, MD ",-76.6077585,39.3382078,park
160,"2323 Greenmount Ave Baltimore, MD ",-76.60912,39.3160941,park
161,"699 Newington Ave Baltimore, MD ",-76.6294872,39.313408,park
162,"1400 North Ave Baltimore, MD ",0.0,0.0,park
163,"6800 Hamlet Ave Baltimore, MD ",-76.5590866259,39.3675412,park
164,"2101 Rogers Ave Baltimore, MD ",0.0,0.0,park
165,"1021 Linwood Ave Baltimore, MD ",-76.5364124,39.3718398,park
166,"1301 Lanvale St Baltimore, MD ",0.0,0.0,park
167,"1000 Janney St Baltimore, MD ",0.0,0.0,park
168,"3902 Pall Mall Rd Baltimore, MD ",-76.659843,39.3350756,park
169,"1600 2200 Park Ave Baltimore, MD ",0.0,0.0,park
170,"1335 Stricker St Baltimore, MD ",0.0,0.0,park
171,"1001 Howard St Baltimore, MD ",0.0,0.0,park
172,"4004 Penhurst Ave Baltimore, MD ",-76.6854985,39.3391204,park
173,"655 Melvin Dr Baltimore, MD ",-76.625652,39.2846046,park
174,"2000 Pennsylvania Ave Baltimore, MD ",-76.6377638,39.3058857,park
175,"1500 Pentwood Rd Baltimore, MD ",-76.5908114382,39.3487785,park
176,"Myrtle Ave Baltimore, MD ",-76.6303921,39.2972101,park
177,"6301 Perring Pkwy Baltimore, MD ",-76.5735182399,39.3642574158,park
178,"3901 Pleasant Pl Baltimore, MD ",-76.6321324,39.3355386,park
179,"3001 Poplar Ter Baltimore, MD ",-76.667931,39.312773,park
180,"5700 Liberty Heights &amp; Perring Pkwy Baltimore, MD ",0.0,0.0,park
181,"3009 Spaulding Ave Baltimore, MD ",-76.6721218577,39.349613,park
182,"400 Quinton St Baltimore, MD ",-76.531615,39.288882,park
183,"5602 Radecke Ave Baltimore, MD ",-76.5366773,39.3302037,park
184,"201 Reedbird Ave Baltimore, MD ",-76.6145521,39.2476078,park
185,"751 Reservoir St Baltimore, MD ",-76.6307864,39.312581,park
186,"502 Presstman St Baltimore, MD ",-76.6359536,39.3073209,park
187,"301 Randall St Baltimore, MD ",0.0,0.0,park
188,"424 Robert St Baltimore, MD ",-76.6333977,39.3076258,park
189,"1201 Pennsylvania Ave Baltimore, MD ",-76.6297,39.299664,park
190,"4265 Rokeby Rd Baltimore, MD ",-76.6890332567,39.29873125,park
191,"1201 36th St Baltimore, MD ",0.0,0.0,park
192,"840 Franklintown Rd Baltimore, MD ",-76.6673464,39.2978162,park
193,"1201 Rosedale St Baltimore, MD ",0.0,0.0,park
194,"1511 Mucculloh St Baltimore, MD ",0.0,0.0,park
195,"1402 Rutter St Baltimore, MD ",-76.6230581998,39.30822445,park
196,"2719 O Donnell St Baltimore, MD ",0.0,0.0,park
197,"4754 Melbourne Rd Baltimore, MD ",-76.6958556745,39.2725242548,park
198,"6521 Parnell Ave Baltimore, MD ",-76.5319064898,39.2589000204,park
199,"230 Mccurley St Baltimore, MD ",-76.673746,39.2833111,park
200,"2001 Druid Hill Ave Baltimore, MD ",-76.6353708,39.307706,park
201,"902 Stiles St Baltimore, MD ",-76.6019952,39.2871178,park
202,"450 St Mary St Baltimore, MD ",-76.6227555556,39.2977717778,park
203,"606 Paca St Baltimore, MD ",-76.6458753,39.2625649,park
204,"1122 Saratoga St Baltimore, MD ",0.0,0.0,park
205,"100 Schroeder St Baltimore, MD ",0.0,0.0,park
206,"2500 Booth St Baltimore, MD ",-76.6566124,39.2873144,park
207,"2502 Boyd St Baltimore, MD ",-76.6567563,39.2863303,park
208,"4001 Reisterstown Rd Baltimore, MD ",-76.6637883,39.3340033,park
209,"701 Fayette St Baltimore, MD ",0.0,0.0,park
210,"5501 Silverbell Ave Baltimore, MD ",0.0,0.0,park
211,"1044 Leadenhall St Baltimore, MD ",-76.6181178803,39.2771673,park
212,"401 Stricker St Baltimore, MD ",0.0,0.0,park
213,"201 Mccomas St Baltimore, MD ",0.0,0.0,park
214,"1832 Thames St Baltimore, MD ",-76.5906776177,39.2820568844,park
215,"4126 Towanda Ave Baltimore, MD ",-76.6664014,39.3348277,park
216,"31 Gilmor St Baltimore, MD ",0.0,0.0,park
217,nan,70.3800314,34.220389,park
218,"1901 Pennsylvania Ave Baltimore, MD ",-76.6365326578,39.305434,park
219,"122 Vincent St Baltimore, MD ",0.0,0.0,park
220,"1095 Joh Ave Baltimore, MD ",-76.6807851,39.2673409,park
221,"101 Holliday St Baltimore, MD ",-76.6104574,39.2934463,park
222,"611 Warner St Baltimore, MD ",-76.6236387,39.2832312,park
223,"2 Warwick Ave Baltimore, MD ",0.0,0.0,park
224,"699 Washington Pl Baltimore, MD ",-76.61565655,39.2975248,park
225,"2932 Indepence St Baltimore, MD ",0.0,0.0,park
226,"5800 6700 Cross Country Blvd Baltimore, MD ",0.0,0.0,park
227,"1600 Dukeland St Baltimore, MD ",0.0,0.0,park
228,"1600 Laurens St Baltimore, MD ",-76.64338,39.30329,park
229,"2408 Allendale St Baltimore, MD ",-76.6782596,39.2917671,park
230,"603 Willow Ave Baltimore, MD ",-76.607395,39.3441088,park
231,"520 Islamic Way Baltimore, MD ",0.0,0.0,park
232,"2905 Lawina Rd Baltimore, MD ",-76.6892768163,39.3179001224,park
233,"5400 Winner Ave Baltimore, MD ",-76.6780534,39.3529948,park
234,"2200 Druid Park Dr Baltimore, MD ",-76.6511924,39.3313937,park
235,nan,70.3800314,34.220389,park
236,"1633 Woodbourne Ave Baltimore, MD ",-76.5850571547,39.3553061,park
237,"603 Bethnal Rd Baltimore, MD ",-76.6889945,39.2758108,park
238,"3201 Hillen Rd Baltimore, MD ",-76.5890412,39.3278629,park
239,"29th St Baltimore, MD ",-76.615848,39.3234403,park
240,"33rd St Baltimore, MD ",-76.5229999,39.326323,park
241,"3301 Waterview Ave Baltimore, MD ",-76.6223110074,39.2550105,park
242,nan,70.3800314,34.220389,park
243,"1200 Baltimore St Baltimore, MD ",-76.5251439,39.295335,park
244,"2020 Rockrose Ave Baltimore, MD ",-76.646918255,39.3345476423,park
245,"3900 Clipper Rd Baltimore, MD ",-76.6488701,39.3376601,park
246,"101 Cold Spring La Baltimore, MD ",-76.6558459,39.3492318,park
247,"1308 Lanvale St Baltimore, MD ",0.0,0.0,park
248,"823 Mount St Baltimore, MD ",0.0,0.0,park
249,"1725 Lafayette Ave Baltimore, MD ",-76.7366219,39.2806598,park
250,"702 Mount St Baltimore, MD ",0.0,0.0,park
251,"1120 Harlem Ave Baltimore, MD ",-76.6366482,39.2968956,park
252,"1100 Edmondson Ave Baltimore, MD ",-76.6361571,39.2956717,park
253,"600 Block Woodyear St Baltimore, MD ",0.0,0.0,park
254,"529 Gilmor St Baltimore, MD ",0.0,0.0,park
255,"527 1 2 N Stricker St Baltimore, MD ",-76.641220449,39.2944773878,park
256,"1302 Franklin St Baltimore, MD ",0.0,0.0,park
257,"1122 1 2 W Franklin St Baltimore, MD ",-76.636158,39.294365,park
258,"200 Linwood Ave Baltimore, MD ",-76.5364124,39.3718398,park
259,"4307 Reisterstown Rd Baltimore, MD ",-76.6665115,39.3373633,park
260,nan,70.3800314,34.220389,park
261,"2700 Madison Ave Baltimore, MD ",-76.6386969,39.3135168,park
262,nan,70.3800314,34.220389,park
263,"1225 Ellwood Ave Baltimore, MD ",0.0,0.0,park
264,"3201 Toone St Baltimore, MD ",-76.5706233,39.2781807,park
265,"6100 Hillen Rd Baltimore, MD ",-76.5893189,39.328839,park
266,"Perring Pkwy Baltimore, MD ",-76.5812099,39.351252,park
267,"6101 Hillen Rd Baltimore, MD ",-76.5778395238,39.3689468,park
268,"6131 Hillen Rd Baltimore, MD ",-76.5773201608,39.37298585,park
269,"2781 Wilkens Ave Baltimore, MD ",-76.661264,39.2767898,park
270,"1500 Washington Blvd Baltimore, MD ",-76.6517798,39.274629,park
271,"4921 Windsor Mill Rd Baltimore, MD ",-76.7050105988,39.30807395,park
272,"Beechfield Ave Baltimore, MD ",-76.6980419,39.2813221,park
273,"Gwynns Falls Pkwy Baltimore, MD ",-76.6644281,39.3146838,park
274,"2640 Paca St Baltimore, MD ",-76.6472854,39.2617348,park
275,"2300 Hollins Ferry Rd Baltimore, MD ",-76.6439688,39.2644968,park
